[
  {
    "name": "鸭血粉丝汤（狮子桥店）",
    "area": "湖南路",
    "taste": "咸鲜",
    "mealType": "正餐",
    "avgPrice": 25,
    "isLocalFavorite": true,
    "isInfluencerHype": false,
    "reason": "南京小吃标志，汤鲜料足",
    "avoidTips": null,
    "bookingUrl": "https://m.dianping.com/shoplist/0/searchkeyword_%E9%B8%AD%E8%A1%80%E7%B2%89%E4%B8%9D%E6%B1%A4%EF%BC%88%E7%8B%AE%E5%AD%90%E6%A1%A5%E5%BA%97%EF%BC%89%20%E6%B9%96%E5%8D%97%E8%B7%AF",
    "address": "南京市鼓楼区湖南路",
    "latitude": 32.070299999999996,
    "longitude": 118.78689999999999,
    "platform": "大众点评"
  },
  {
    "name": "南京大牌档",
    "area": "夫子庙",
    "taste": "咸鲜",
    "mealType": "正餐",
    "avgPrice": 75,
    "isLocalFavorite": true,
    "isInfluencerHype": false,
    "reason": "盐水鸭、美龄粥、糖芋苗",
    "avoidTips": "夫子庙店人多",
    "bookingUrl": "https://m.dianping.com/shoplist/0/searchkeyword_%E5%8D%97%E4%BA%AC%E5%A4%A7%E7%89%8C%E6%A1%A3%20%E5%A4%AB%E5%AD%90%E5%BA%99",
    "address": "南京市秦淮区夫子庙",
    "latitude": 32.055299999999995,
    "longitude": 118.8119,
    "platform": "大众点评"
  },
  {
    "name": "小潘记鸭血粉丝",
    "area": "瑞金路",
    "taste": "咸鲜",
    "mealType": "正餐",
    "avgPrice": 22,
    "isLocalFavorite": true,
    "isInfluencerHype": false,
    "reason": "本地人更爱的小馆",
    "avoidTips": null,
    "bookingUrl": "https://m.dianping.com/shoplist/0/searchkeyword_%E5%B0%8F%E6%BD%98%E8%AE%B0%E9%B8%AD%E8%A1%80%E7%B2%89%E4%B8%9D%20%E7%91%9E%E9%87%91%E8%B7%AF",
    "address": "南京市秦淮区瑞金路",
    "latitude": 32.0683,
    "longitude": 118.81689999999999,
    "platform": "大众点评"
  },
  {
    "name": "秦淮八绝小吃",
    "area": "夫子庙",
    "taste": "咸甜",
    "mealType": "小吃",
    "avgPrice": 40,
    "isLocalFavorite": true,
    "isInfluencerHype": false,
    "reason": "夫子庙传统点心组合",
    "avoidTips": null,
    "bookingUrl": "https://m.dianping.com/shoplist/0/searchkeyword_%E7%A7%A6%E6%B7%AE%E5%85%AB%E7%BB%9D%E5%B0%8F%E5%90%83%20%E5%A4%AB%E5%AD%90%E5%BA%99",
    "address": "南京市秦淮区贡院街",
    "latitude": 32.0573,
    "longitude": 118.8089,
    "platform": "大众点评"
  },
  {
    "name": "龙虾烧烤夜市",
    "area": "1912街区",
    "taste": "辣",
    "mealType": "夜宵",
    "avgPrice": 100,
    "isLocalFavorite": true,
    "isInfluencerHype": false,
    "reason": "夜宵街区氛围好",
    "avoidTips": null,
    "bookingUrl": "https://m.dianping.com/shoplist/0/searchkeyword_%E9%BE%99%E8%99%BE%E7%83%A7%E7%83%A4%E5%A4%9C%E5%B8%82%201912%E8%A1%97%E5%8C%BA",
    "address": "南京市鼓楼区长江后街",
    "latitude": 32.0723,
    "longitude": 118.7889,
    "platform": "大众点评"
  }
]
