[
  {
    "name": "崇善米粉",
    "area": "解放东路",
    "taste": "咸鲜",
    "mealType": "早餐",
    "avgPrice": 18,
    "isLocalFavorite": true,
    "isInfluencerHype": false,
    "reason": "桂林米粉老字号",
    "avoidTips": null,
    "bookingUrl": "https://m.dianping.com/shoplist/0/searchkeyword_%E5%B4%87%E5%96%84%E7%B1%B3%E7%B2%89%20%E8%A7%A3%E6%94%BE%E4%B8%9C%E8%B7%AF",
    "address": "桂林市秀峰区解放东路",
    "latitude": 25.277,
    "longitude": 110.29400000000001,
    "platform": "大众点评"
  },
  {
    "name": "啤酒鱼",
    "area": "阳朔西街",
    "taste": "鲜",
    "mealType": "正餐",
    "avgPrice": 88,
    "isLocalFavorite": true,
    "isInfluencerHype": false,
    "reason": "漓江啤酒鱼，鲜嫩入味",
    "avoidTips": "阳朔需留足往返时间",
    "bookingUrl": "https://m.dianping.com/shoplist/0/searchkeyword_%E5%95%A4%E9%85%92%E9%B1%BC%20%E9%98%B3%E6%9C%94%E8%A5%BF%E8%A1%97",
    "address": "阳朔县西街",
    "latitude": 25.424,
    "longitude": 110.41900000000001,
    "platform": "大众点评"
  },
  {
    "name": "荔浦芋头扣肉",
    "area": "正阳步行街",
    "taste": "咸香",
    "mealType": "正餐",
    "avgPrice": 55,
    "isLocalFavorite": true,
    "isInfluencerHype": false,
    "reason": "荔浦芋头软糯",
    "avoidTips": null,
    "bookingUrl": "https://m.dianping.com/shoplist/0/searchkeyword_%E8%8D%94%E6%B5%A6%E8%8A%8B%E5%A4%B4%E6%89%A3%E8%82%89%20%E6%AD%A3%E9%98%B3%E6%AD%A5%E8%A1%8C%E8%A1%97",
    "address": "桂林市秀峰区正阳步行街",
    "latitude": 25.279,
    "longitude": 110.296,
    "platform": "大众点评"
  },
  {
    "name": "油茶",
    "area": "两江四湖",
    "taste": "咸香",
    "mealType": "早餐",
    "avgPrice": 15,
    "isLocalFavorite": true,
    "isInfluencerHype": false,
    "reason": "桂林油茶，驱寒暖胃",
    "avoidTips": null,
    "bookingUrl": "https://m.dianping.com/shoplist/0/searchkeyword_%E6%B2%B9%E8%8C%B6%20%E4%B8%A4%E6%B1%9F%E5%9B%9B%E6%B9%96",
    "address": "桂林市秀峰区滨江路",
    "latitude": 25.276,
    "longitude": 110.29100000000001,
    "platform": "大众点评"
  },
  {
    "name": "夜市烧烤",
    "area": "东西巷",
    "taste": "辣",
    "mealType": "夜宵",
    "avgPrice": 60,
    "isLocalFavorite": true,
    "isInfluencerHype": false,
    "reason": "东西巷夜市小吃",
    "avoidTips": null,
    "bookingUrl": "https://m.dianping.com/shoplist/0/searchkeyword_%E5%A4%9C%E5%B8%82%E7%83%A7%E7%83%A4%20%E4%B8%9C%E8%A5%BF%E5%B7%B7",
    "address": "桂林市秀峰区东西巷",
    "latitude": 25.278000000000002,
    "longitude": 110.293,
    "platform": "大众点评"
  }
]
