[
  {
    "name": "南翔馒头店",
    "area": "豫园",
    "taste": "清淡",
    "mealType": "正餐",
    "avgPrice": 45,
    "isLocalFavorite": true,
    "isInfluencerHype": false,
    "reason": "小笼包皮薄汁多，豫园老字号",
    "avoidTips": "周末人流大",
    "bookingUrl": "https://m.dianping.com/shoplist/0/searchkeyword_%E5%8D%97%E7%BF%94%E9%A6%92%E5%A4%B4%E5%BA%97%20%E8%B1%AB%E5%9B%AD",
    "address": "上海市黄浦区豫园路85号",
    "latitude": 31.2404,
    "longitude": 121.4837,
    "platform": "大众点评"
  },
  {
    "name": "老正兴菜馆",
    "area": "南京路",
    "taste": "咸鲜",
    "mealType": "正餐",
    "avgPrice": 120,
    "isLocalFavorite": true,
    "isInfluencerHype": false,
    "reason": "本帮菜代表，草头圈子、响油鳝丝",
    "avoidTips": null,
    "bookingUrl": "https://m.dianping.com/shoplist/0/searchkeyword_%E8%80%81%E6%AD%A3%E5%85%B4%E8%8F%9C%E9%A6%86%20%E5%8D%97%E4%BA%AC%E8%B7%AF",
    "address": "上海市黄浦区福州路556号",
    "latitude": 31.2254,
    "longitude": 121.49369999999999,
    "platform": "大众点评"
  },
  {
    "name": "阿大葱油饼",
    "area": "卢湾",
    "taste": "咸香",
    "mealType": "早餐",
    "avgPrice": 15,
    "isLocalFavorite": true,
    "isInfluencerHype": true,
    "reason": "网红葱油饼，酥脆多层",
    "avoidTips": "排队时间较长",
    "bookingUrl": "https://m.dianping.com/shoplist/0/searchkeyword_%E9%98%BF%E5%A4%A7%E8%91%B1%E6%B2%B9%E9%A5%BC%20%E5%8D%A2%E6%B9%BE",
    "address": "上海市黄浦区茂名南路",
    "latitude": 31.2384,
    "longitude": 121.46369999999999,
    "platform": "大众点评"
  },
  {
    "name": "鲜得来排骨年糕",
    "area": "云南路",
    "taste": "咸鲜",
    "mealType": "正餐",
    "avgPrice": 35,
    "isLocalFavorite": true,
    "isInfluencerHype": false,
    "reason": "排骨年糕是上海小吃标志",
    "avoidTips": null,
    "bookingUrl": "https://m.dianping.com/shoplist/0/searchkeyword_%E9%B2%9C%E5%BE%97%E6%9D%A5%E6%8E%92%E9%AA%A8%E5%B9%B4%E7%B3%95%20%E4%BA%91%E5%8D%97%E8%B7%AF",
    "address": "上海市黄浦区云南南路",
    "latitude": 31.2354,
    "longitude": 121.4887,
    "platform": "大众点评"
  },
  {
    "name": "外滩夜市烧烤",
    "area": "外滩",
    "taste": "辣",
    "mealType": "夜宵",
    "avgPrice": 90,
    "isLocalFavorite": true,
    "isInfluencerHype": false,
    "reason": "江景夜宵，适合朋友小聚",
    "avoidTips": null,
    "bookingUrl": "https://m.dianping.com/shoplist/0/searchkeyword_%E5%A4%96%E6%BB%A9%E5%A4%9C%E5%B8%82%E7%83%A7%E7%83%A4%20%E5%A4%96%E6%BB%A9",
    "address": "上海市黄浦区中山东一路附近",
    "latitude": 31.2424,
    "longitude": 121.4987,
    "platform": "大众点评"
  }
]
