[
  {
    "name": "松鹤楼",
    "area": "观前街",
    "taste": "清淡",
    "mealType": "正餐",
    "avgPrice": 120,
    "isLocalFavorite": true,
    "isInfluencerHype": false,
    "reason": "苏帮菜老字号，松鼠桂鱼",
    "avoidTips": "松鼠桂鱼需提前点",
    "bookingUrl": "https://m.dianping.com/shoplist/0/searchkeyword_%E6%9D%BE%E9%B9%A4%E6%A5%BC%20%E8%A7%82%E5%89%8D%E8%A1%97",
    "address": "苏州市姑苏区观前街",
    "latitude": 31.3039,
    "longitude": 120.59530000000001,
    "platform": "大众点评"
  },
  {
    "name": "同得兴面馆",
    "area": "平江路",
    "taste": "咸鲜",
    "mealType": "正餐",
    "avgPrice": 35,
    "isLocalFavorite": true,
    "isInfluencerHype": false,
    "reason": "枫镇大肉面、三虾面",
    "avoidTips": null,
    "bookingUrl": "https://m.dianping.com/shoplist/0/searchkeyword_%E5%90%8C%E5%BE%97%E5%85%B4%E9%9D%A2%E9%A6%86%20%E5%B9%B3%E6%B1%9F%E8%B7%AF",
    "address": "苏州市姑苏区平江路",
    "latitude": 31.3069,
    "longitude": 120.6003,
    "platform": "大众点评"
  },
  {
    "name": "朱鸿兴苏式面",
    "area": "观前街",
    "taste": "咸鲜",
    "mealType": "正餐",
    "avgPrice": 32,
    "isLocalFavorite": true,
    "isInfluencerHype": false,
    "reason": "苏式汤面，焖肉面经典",
    "avoidTips": null,
    "bookingUrl": "https://m.dianping.com/shoplist/0/searchkeyword_%E6%9C%B1%E9%B8%BF%E5%85%B4%E8%8B%8F%E5%BC%8F%E9%9D%A2%20%E8%A7%82%E5%89%8D%E8%A1%97",
    "address": "苏州市姑苏区观前街",
    "latitude": 31.3019,
    "longitude": 120.5933,
    "platform": "大众点评"
  },
  {
    "name": "采芝斋",
    "area": "观前街",
    "taste": "甜",
    "mealType": "小吃",
    "avgPrice": 30,
    "isLocalFavorite": true,
    "isInfluencerHype": false,
    "reason": "苏式糖果、粽子糖",
    "avoidTips": null,
    "bookingUrl": "https://m.dianping.com/shoplist/0/searchkeyword_%E9%87%87%E8%8A%9D%E6%96%8B%20%E8%A7%82%E5%89%8D%E8%A1%97",
    "address": "苏州市姑苏区观前街",
    "latitude": 31.3009,
    "longitude": 120.5903,
    "platform": "大众点评"
  },
  {
    "name": "山塘街小吃",
    "area": "山塘街",
    "taste": "咸甜",
    "mealType": "小吃",
    "avgPrice": 45,
    "isLocalFavorite": true,
    "isInfluencerHype": false,
    "reason": "梅花糕、海棠糕等传统点心",
    "avoidTips": null,
    "bookingUrl": "https://m.dianping.com/shoplist/0/searchkeyword_%E5%B1%B1%E5%A1%98%E8%A1%97%E5%B0%8F%E5%90%83%20%E5%B1%B1%E5%A1%98%E8%A1%97",
    "address": "苏州市姑苏区山塘街",
    "latitude": 31.2939,
    "longitude": 120.5753,
    "platform": "大众点评"
  }
]
