[
  {
    "name": "黄则和花生汤",
    "area": "中山路",
    "taste": "甜",
    "mealType": "早餐",
    "avgPrice": 20,
    "isLocalFavorite": true,
    "isInfluencerHype": false,
    "reason": "花生汤、沙茶面经典",
    "avoidTips": null,
    "bookingUrl": "https://m.dianping.com/shoplist/0/searchkeyword_%E9%BB%84%E5%88%99%E5%92%8C%E8%8A%B1%E7%94%9F%E6%B1%A4%20%E4%B8%AD%E5%B1%B1%E8%B7%AF",
    "address": "厦门市思明区中山路",
    "latitude": 24.4848,
    "longitude": 118.0994,
    "platform": "大众点评"
  },
  {
    "name": "海蛎煎老店",
    "area": "鼓浪屿",
    "taste": "鲜",
    "mealType": "小吃",
    "avgPrice": 25,
    "isLocalFavorite": true,
    "isInfluencerHype": false,
    "reason": "鼓浪屿特色小吃",
    "avoidTips": null,
    "bookingUrl": "https://m.dianping.com/shoplist/0/searchkeyword_%E6%B5%B7%E8%9B%8E%E7%85%8E%E8%80%81%E5%BA%97%20%E9%BC%93%E6%B5%AA%E5%B1%BF",
    "address": "厦门市思明区鼓浪屿",
    "latitude": 24.4698,
    "longitude": 118.0844,
    "platform": "大众点评"
  },
  {
    "name": "姜母鸭",
    "area": "曾厝垵",
    "taste": "咸香",
    "mealType": "正餐",
    "avgPrice": 88,
    "isLocalFavorite": true,
    "isInfluencerHype": false,
    "reason": "闽南姜母鸭，秋冬暖胃",
    "avoidTips": null,
    "bookingUrl": "https://m.dianping.com/shoplist/0/searchkeyword_%E5%A7%9C%E6%AF%8D%E9%B8%AD%20%E6%9B%BE%E5%8E%9D%E5%9E%B5",
    "address": "厦门市思明区曾厝垵",
    "latitude": 24.4878,
    "longitude": 118.1044,
    "platform": "大众点评"
  },
  {
    "name": "沙茶面",
    "area": "八市",
    "taste": "咸鲜",
    "mealType": "正餐",
    "avgPrice": 28,
    "isLocalFavorite": true,
    "isInfluencerHype": false,
    "reason": "八市海鲜配沙茶面",
    "avoidTips": null,
    "bookingUrl": "https://m.dianping.com/shoplist/0/searchkeyword_%E6%B2%99%E8%8C%B6%E9%9D%A2%20%E5%85%AB%E5%B8%82",
    "address": "厦门市思明区开元路",
    "latitude": 24.4828,
    "longitude": 118.0974,
    "platform": "大众点评"
  },
  {
    "name": "海鲜大排档",
    "area": "环岛路",
    "taste": "鲜",
    "mealType": "夜宵",
    "avgPrice": 110,
    "isLocalFavorite": true,
    "isInfluencerHype": false,
    "reason": "环岛路海景夜宵",
    "avoidTips": null,
    "bookingUrl": "https://m.dianping.com/shoplist/0/searchkeyword_%E6%B5%B7%E9%B2%9C%E5%A4%A7%E6%8E%92%E6%A1%A3%20%E7%8E%AF%E5%B2%9B%E8%B7%AF",
    "address": "厦门市思明区环岛路",
    "latitude": 24.4918,
    "longitude": 118.1094,
    "platform": "大众点评"
  }
]
